{"schema":"spear-fleet-index/v2","updated":"2026-07-13T20:53Z","racks_per_region":6000,"region_count":359,"total_racks":2154000,"scalable":true,"lazy":true,"world":true,"map":{"image":"/assets/maps/world-equirectangular.jpg","projection":"equirectangular","x":"(lon + 180) / 360","y":"(90 - lat) / 180"},"regions":[{"code":"AF","name":"Afghanistan","kind":"country","zone":"AS","racks":6000,"lat":33.9391,"lon":67.71,"online":6000,"ok":6000,"status":"ok"},{"code":"AL","name":"Albania","kind":"country","zone":"EU","racks":6000,"lat":41.1533,"lon":20.1683,"online":6000,"ok":6000,"status":"ok"},{"code":"DZ","name":"Algeria","kind":"country","zone":"AF","racks":6000,"lat":28.0339,"lon":1.6596,"online":6000,"ok":6000,"status":"ok"},{"code":"AD","name":"Andorra","kind":"country","zone":"EU","racks":6000,"lat":42.5063,"lon":1.5218,"online":6000,"ok":6000,"status":"ok"},{"code":"AO","name":"Angola","kind":"country","zone":"AF","racks":6000,"lat":-11.2027,"lon":17.8739,"online":6000,"ok":6000,"status":"ok"},{"code":"AG","name":"Antigua and Barbuda","kind":"country","zone":"CARIB","racks":6000,"lat":17.0608,"lon":-61.7964,"online":6000,"ok":6000,"status":"ok"},{"code":"AR","name":"Argentina","kind":"country","zone":"SA","racks":6000,"lat":-38.4161,"lon":-63.6167,"online":6000,"ok":6000,"status":"ok"},{"code":"AM","name":"Armenia","kind":"country","zone":"AS","racks":6000,"lat":40.0691,"lon":45.0382,"online":6000,"ok":6000,"status":"ok"},{"code":"AU","name":"Australia","kind":"country","zone":"OC","racks":6000,"lat":-25.2744,"lon":133.7751,"online":6000,"ok":6000,"status":"ok"},{"code":"AT","name":"Austria","kind":"country","zone":"EU","racks":6000,"lat":47.5162,"lon":14.5501,"online":6000,"ok":6000,"status":"ok"},{"code":"AZ","name":"Azerbaijan","kind":"country","zone":"AS","racks":6000,"lat":40.1431,"lon":47.5769,"online":6000,"ok":6000,"status":"ok"},{"code":"BS","name":"Bahamas","kind":"country","zone":"CARIB","racks":6000,"lat":25.0343,"lon":-77.3963,"online":6000,"ok":6000,"status":"ok"},{"code":"BH","name":"Bahrain","kind":"country","zone":"AS","racks":6000,"lat":26.0667,"lon":50.5577,"online":6000,"ok":6000,"status":"ok"},{"code":"BD","name":"Bangladesh","kind":"country","zone":"AS","racks":6000,"lat":23.685,"lon":90.3563,"online":6000,"ok":6000,"status":"ok"},{"code":"BB","name":"Barbados","kind":"country","zone":"CARIB","racks":6000,"lat":13.1939,"lon":-59.5432,"online":6000,"ok":6000,"status":"ok"},{"code":"BY","name":"Belarus","kind":"country","zone":"EU","racks":6000,"lat":53.7098,"lon":27.9534,"online":6000,"ok":6000,"status":"ok"},{"code":"BE","name":"Belgium","kind":"country","zone":"EU","racks":6000,"lat":50.5039,"lon":4.4699,"online":6000,"ok":6000,"status":"ok"},{"code":"BZ","name":"Belize","kind":"country","zone":"CA","racks":6000,"lat":17.1899,"lon":-88.4976,"online":6000,"ok":6000,"status":"ok"},{"code":"BJ","name":"Benin","kind":"country","zone":"AF","racks":6000,"lat":9.3077,"lon":2.3158,"online":6000,"ok":6000,"status":"ok"},{"code":"BT","name":"Bhutan","kind":"country","zone":"AS","racks":6000,"lat":27.5142,"lon":90.4336,"online":6000,"ok":6000,"status":"ok"},{"code":"BO","name":"Bolivia","kind":"country","zone":"SA","racks":6000,"lat":-16.2902,"lon":-63.5887,"online":6000,"ok":6000,"status":"ok"},{"code":"BA","name":"Bosnia and Herzegovina","kind":"country","zone":"EU","racks":6000,"lat":43.9159,"lon":17.6791,"online":6000,"ok":6000,"status":"ok"},{"code":"BW","name":"Botswana","kind":"country","zone":"AF","racks":6000,"lat":-22.3285,"lon":24.6849,"online":6000,"ok":6000,"status":"ok"},{"code":"BR","name":"Brazil","kind":"country","zone":"SA","racks":6000,"lat":-14.235,"lon":-51.9253,"online":6000,"ok":6000,"status":"ok"},{"code":"BN","name":"Brunei","kind":"country","zone":"AS","racks":6000,"lat":4.5353,"lon":114.7277,"online":6000,"ok":6000,"status":"ok"},{"code":"BG","name":"Bulgaria","kind":"country","zone":"EU","racks":6000,"lat":42.7339,"lon":25.4858,"online":6000,"ok":6000,"status":"ok"},{"code":"BF","name":"Burkina Faso","kind":"country","zone":"AF","racks":6000,"lat":12.2383,"lon":-1.5616,"online":6000,"ok":6000,"status":"ok"},{"code":"BI","name":"Burundi","kind":"country","zone":"AF","racks":6000,"lat":-3.3731,"lon":29.9189,"online":6000,"ok":6000,"status":"ok"},{"code":"CV","name":"Cabo Verde","kind":"country","zone":"AF","racks":6000,"lat":16.5388,"lon":-23.0418,"online":6000,"ok":6000,"status":"ok"},{"code":"KH","name":"Cambodia","kind":"country","zone":"AS","racks":6000,"lat":12.5657,"lon":104.991,"online":6000,"ok":6000,"status":"ok"},{"code":"CM","name":"Cameroon","kind":"country","zone":"AF","racks":6000,"lat":7.3697,"lon":12.3547,"online":6000,"ok":6000,"status":"ok"},{"code":"CA","name":"Canada","kind":"country","zone":"NA","racks":6000,"lat":56.1304,"lon":-106.3468,"online":6000,"ok":6000,"status":"ok"},{"code":"CF","name":"Central African Republic","kind":"country","zone":"AF","racks":6000,"lat":6.6111,"lon":20.9394,"online":6000,"ok":6000,"status":"ok"},{"code":"TD","name":"Chad","kind":"country","zone":"AF","racks":6000,"lat":15.4542,"lon":18.7322,"online":6000,"ok":6000,"status":"ok"},{"code":"CL","name":"Chile","kind":"country","zone":"SA","racks":6000,"lat":-35.6751,"lon":-71.543,"online":6000,"ok":6000,"status":"ok"},{"code":"CN","name":"China","kind":"country","zone":"AS","racks":6000,"lat":35.8617,"lon":104.1954,"online":6000,"ok":6000,"status":"ok"},{"code":"CO","name":"Colombia","kind":"country","zone":"SA","racks":6000,"lat":4.5709,"lon":-74.2973,"online":6000,"ok":6000,"status":"ok"},{"code":"KM","name":"Comoros","kind":"country","zone":"AF","racks":6000,"lat":-11.6455,"lon":43.3333,"online":6000,"ok":6000,"status":"ok"},{"code":"CG","name":"Congo","kind":"country","zone":"AF","racks":6000,"lat":-0.228,"lon":15.8277,"online":6000,"ok":6000,"status":"ok"},{"code":"CD","name":"DR Congo","kind":"country","zone":"AF","racks":6000,"lat":-4.0383,"lon":21.7587,"online":6000,"ok":6000,"status":"ok"},{"code":"CR","name":"Costa Rica","kind":"country","zone":"CA","racks":6000,"lat":9.7489,"lon":-83.7534,"online":6000,"ok":6000,"status":"ok"},{"code":"CI","name":"C\u00f4te d'Ivoire","kind":"country","zone":"AF","racks":6000,"lat":7.54,"lon":-5.5471,"online":6000,"ok":6000,"status":"ok"},{"code":"HR","name":"Croatia","kind":"country","zone":"EU","racks":6000,"lat":45.1,"lon":15.2,"online":6000,"ok":6000,"status":"ok"},{"code":"CU","name":"Cuba","kind":"country","zone":"CARIB","racks":6000,"lat":21.5218,"lon":-77.7812,"online":6000,"ok":6000,"status":"ok"},{"code":"CY","name":"Cyprus","kind":"country","zone":"EU","racks":6000,"lat":35.1264,"lon":33.4299,"online":6000,"ok":6000,"status":"ok"},{"code":"CZ","name":"Czechia","kind":"country","zone":"EU","racks":6000,"lat":49.8175,"lon":15.473,"online":6000,"ok":6000,"status":"ok"},{"code":"DK","name":"Denmark","kind":"country","zone":"EU","racks":6000,"lat":56.2639,"lon":9.5018,"online":6000,"ok":6000,"status":"ok"},{"code":"DJ","name":"Djibouti","kind":"country","zone":"AF","racks":6000,"lat":11.8251,"lon":42.5903,"online":6000,"ok":6000,"status":"ok"},{"code":"DM","name":"Dominica","kind":"country","zone":"CARIB","racks":6000,"lat":15.415,"lon":-61.371,"online":6000,"ok":6000,"status":"ok"},{"code":"DO","name":"Dominican Republic","kind":"country","zone":"CARIB","racks":6000,"lat":18.7357,"lon":-70.1627,"online":6000,"ok":6000,"status":"ok"},{"code":"EC","name":"Ecuador","kind":"country","zone":"SA","racks":6000,"lat":-1.8312,"lon":-78.1834,"online":6000,"ok":6000,"status":"ok"},{"code":"EG","name":"Egypt","kind":"country","zone":"AF","racks":6000,"lat":26.8206,"lon":30.8025,"online":6000,"ok":6000,"status":"ok"},{"code":"SV","name":"El Salvador","kind":"country","zone":"CA","racks":6000,"lat":13.7942,"lon":-88.8965,"online":6000,"ok":6000,"status":"ok"},{"code":"GQ","name":"Equatorial Guinea","kind":"country","zone":"AF","racks":6000,"lat":1.6508,"lon":10.2679,"online":6000,"ok":6000,"status":"ok"},{"code":"ER","name":"Eritrea","kind":"country","zone":"AF","racks":6000,"lat":15.1794,"lon":39.7823,"online":6000,"ok":6000,"status":"ok"},{"code":"EE","name":"Estonia","kind":"country","zone":"EU","racks":6000,"lat":58.5953,"lon":25.0136,"online":6000,"ok":6000,"status":"ok"},{"code":"SZ","name":"Eswatini","kind":"country","zone":"AF","racks":6000,"lat":-26.5225,"lon":31.4659,"online":6000,"ok":6000,"status":"ok"},{"code":"ET","name":"Ethiopia","kind":"country","zone":"AF","racks":6000,"lat":9.145,"lon":40.4897,"online":6000,"ok":6000,"status":"ok"},{"code":"FJ","name":"Fiji","kind":"country","zone":"OC","racks":6000,"lat":-17.7134,"lon":178.065,"online":6000,"ok":6000,"status":"ok"},{"code":"FI","name":"Finland","kind":"country","zone":"EU","racks":6000,"lat":61.9241,"lon":25.7482,"online":6000,"ok":6000,"status":"ok"},{"code":"FR","name":"France","kind":"country","zone":"EU","racks":6000,"lat":46.2276,"lon":2.2137,"online":6000,"ok":6000,"status":"ok"},{"code":"GA","name":"Gabon","kind":"country","zone":"AF","racks":6000,"lat":-0.8037,"lon":11.6094,"online":6000,"ok":6000,"status":"ok"},{"code":"GM","name":"Gambia","kind":"country","zone":"AF","racks":6000,"lat":13.4432,"lon":-15.3101,"online":6000,"ok":6000,"status":"ok"},{"code":"GE","name":"Georgia","kind":"country","zone":"AS","racks":6000,"lat":42.3154,"lon":43.3569,"online":6000,"ok":6000,"status":"ok"},{"code":"DE","name":"Germany","kind":"country","zone":"EU","racks":6000,"lat":51.1657,"lon":10.4515,"online":6000,"ok":6000,"status":"ok"},{"code":"GH","name":"Ghana","kind":"country","zone":"AF","racks":6000,"lat":7.9465,"lon":-1.0232,"online":6000,"ok":6000,"status":"ok"},{"code":"GR","name":"Greece","kind":"country","zone":"EU","racks":6000,"lat":39.0742,"lon":21.8243,"online":6000,"ok":6000,"status":"ok"},{"code":"GD","name":"Grenada","kind":"country","zone":"CARIB","racks":6000,"lat":12.1165,"lon":-61.679,"online":6000,"ok":6000,"status":"ok"},{"code":"GT","name":"Guatemala","kind":"country","zone":"CA","racks":6000,"lat":15.7835,"lon":-90.2308,"online":6000,"ok":6000,"status":"ok"},{"code":"GN","name":"Guinea","kind":"country","zone":"AF","racks":6000,"lat":9.9456,"lon":-9.6966,"online":6000,"ok":6000,"status":"ok"},{"code":"GW","name":"Guinea-Bissau","kind":"country","zone":"AF","racks":6000,"lat":11.8037,"lon":-15.1804,"online":6000,"ok":6000,"status":"ok"},{"code":"GY","name":"Guyana","kind":"country","zone":"SA","racks":6000,"lat":4.8604,"lon":-58.9302,"online":6000,"ok":6000,"status":"ok"},{"code":"HT","name":"Haiti","kind":"country","zone":"CARIB","racks":6000,"lat":18.9712,"lon":-72.2852,"online":6000,"ok":6000,"status":"ok"},{"code":"HN","name":"Honduras","kind":"country","zone":"CA","racks":6000,"lat":15.2,"lon":-86.2419,"online":6000,"ok":6000,"status":"ok"},{"code":"HU","name":"Hungary","kind":"country","zone":"EU","racks":6000,"lat":47.1625,"lon":19.5033,"online":6000,"ok":6000,"status":"ok"},{"code":"IS","name":"Iceland","kind":"country","zone":"EU","racks":6000,"lat":64.9631,"lon":-19.0208,"online":6000,"ok":6000,"status":"ok"},{"code":"IN","name":"India","kind":"country","zone":"AS","racks":6000,"lat":20.5937,"lon":78.9629,"online":6000,"ok":6000,"status":"ok"},{"code":"ID","name":"Indonesia","kind":"country","zone":"AS","racks":6000,"lat":-0.7893,"lon":113.9213,"online":6000,"ok":6000,"status":"ok"},{"code":"IR","name":"Iran","kind":"country","zone":"AS","racks":6000,"lat":32.4279,"lon":53.688,"online":6000,"ok":6000,"status":"ok"},{"code":"IQ","name":"Iraq","kind":"country","zone":"AS","racks":6000,"lat":33.2232,"lon":43.6793,"online":6000,"ok":6000,"status":"ok"},{"code":"IE","name":"Ireland","kind":"country","zone":"EU","racks":6000,"lat":53.1424,"lon":-7.6921,"online":6000,"ok":6000,"status":"ok"},{"code":"IL","name":"Israel","kind":"country","zone":"AS","racks":6000,"lat":31.0461,"lon":34.8516,"online":6000,"ok":6000,"status":"ok"},{"code":"IT","name":"Italy","kind":"country","zone":"EU","racks":6000,"lat":41.8719,"lon":12.5674,"online":6000,"ok":6000,"status":"ok"},{"code":"JM","name":"Jamaica","kind":"country","zone":"CARIB","racks":6000,"lat":18.1096,"lon":-77.2975,"online":6000,"ok":6000,"status":"ok"},{"code":"JP","name":"Japan","kind":"country","zone":"AS","racks":6000,"lat":36.2048,"lon":138.2529,"online":6000,"ok":6000,"status":"ok"},{"code":"JO","name":"Jordan","kind":"country","zone":"AS","racks":6000,"lat":30.5852,"lon":36.2384,"online":6000,"ok":6000,"status":"ok"},{"code":"KZ","name":"Kazakhstan","kind":"country","zone":"AS","racks":6000,"lat":48.0196,"lon":66.9237,"online":6000,"ok":6000,"status":"ok"},{"code":"KE","name":"Kenya","kind":"country","zone":"AF","racks":6000,"lat":-0.0236,"lon":37.9062,"online":6000,"ok":6000,"status":"ok"},{"code":"KI","name":"Kiribati","kind":"country","zone":"OC","racks":6000,"lat":-3.3704,"lon":-168.734,"online":6000,"ok":6000,"status":"ok"},{"code":"KP","name":"North Korea","kind":"country","zone":"AS","racks":6000,"lat":40.3399,"lon":127.5101,"online":6000,"ok":6000,"status":"ok"},{"code":"KR","name":"South Korea","kind":"country","zone":"AS","racks":6000,"lat":35.9078,"lon":127.7669,"online":6000,"ok":6000,"status":"ok"},{"code":"KW","name":"Kuwait","kind":"country","zone":"AS","racks":6000,"lat":29.3117,"lon":47.4818,"online":6000,"ok":6000,"status":"ok"},{"code":"KG","name":"Kyrgyzstan","kind":"country","zone":"AS","racks":6000,"lat":41.2044,"lon":74.7661,"online":6000,"ok":6000,"status":"ok"},{"code":"LA","name":"Laos","kind":"country","zone":"AS","racks":6000,"lat":19.8563,"lon":102.4955,"online":6000,"ok":6000,"status":"ok"},{"code":"LV","name":"Latvia","kind":"country","zone":"EU","racks":6000,"lat":56.8796,"lon":24.6032,"online":6000,"ok":6000,"status":"ok"},{"code":"LB","name":"Lebanon","kind":"country","zone":"AS","racks":6000,"lat":33.8547,"lon":35.8623,"online":6000,"ok":6000,"status":"ok"},{"code":"LS","name":"Lesotho","kind":"country","zone":"AF","racks":6000,"lat":-29.61,"lon":28.2336,"online":6000,"ok":6000,"status":"ok"},{"code":"LR","name":"Liberia","kind":"country","zone":"AF","racks":6000,"lat":6.4281,"lon":-9.4295,"online":6000,"ok":6000,"status":"ok"},{"code":"LY","name":"Libya","kind":"country","zone":"AF","racks":6000,"lat":26.3351,"lon":17.2283,"online":6000,"ok":6000,"status":"ok"},{"code":"LI","name":"Liechtenstein","kind":"country","zone":"EU","racks":6000,"lat":47.166,"lon":9.5554,"online":6000,"ok":6000,"status":"ok"},{"code":"LT","name":"Lithuania","kind":"country","zone":"EU","racks":6000,"lat":55.1694,"lon":23.8813,"online":6000,"ok":6000,"status":"ok"},{"code":"LU","name":"Luxembourg","kind":"country","zone":"EU","racks":6000,"lat":49.8153,"lon":6.1296,"online":6000,"ok":6000,"status":"ok"},{"code":"MG","name":"Madagascar","kind":"country","zone":"AF","racks":6000,"lat":-18.7669,"lon":46.8691,"online":6000,"ok":6000,"status":"ok"},{"code":"MW","name":"Malawi","kind":"country","zone":"AF","racks":6000,"lat":-13.2543,"lon":34.3015,"online":6000,"ok":6000,"status":"ok"},{"code":"MY","name":"Malaysia","kind":"country","zone":"AS","racks":6000,"lat":4.2105,"lon":101.9758,"online":6000,"ok":6000,"status":"ok"},{"code":"MV","name":"Maldives","kind":"country","zone":"AS","racks":6000,"lat":3.2028,"lon":73.2207,"online":6000,"ok":6000,"status":"ok"},{"code":"ML","name":"Mali","kind":"country","zone":"AF","racks":6000,"lat":17.5707,"lon":-3.9962,"online":6000,"ok":6000,"status":"ok"},{"code":"MT","name":"Malta","kind":"country","zone":"EU","racks":6000,"lat":35.9375,"lon":14.3754,"online":6000,"ok":6000,"status":"ok"},{"code":"MH","name":"Marshall Islands","kind":"country","zone":"OC","racks":6000,"lat":7.1315,"lon":171.1845,"online":6000,"ok":6000,"status":"ok"},{"code":"MR","name":"Mauritania","kind":"country","zone":"AF","racks":6000,"lat":21.0079,"lon":-10.9408,"online":6000,"ok":6000,"status":"ok"},{"code":"MU","name":"Mauritius","kind":"country","zone":"AF","racks":6000,"lat":-20.3484,"lon":57.5522,"online":6000,"ok":6000,"status":"ok"},{"code":"MX","name":"Mexico","kind":"country","zone":"NA","racks":6000,"lat":23.6345,"lon":-102.5528,"online":6000,"ok":6000,"status":"ok"},{"code":"FM","name":"Micronesia","kind":"country","zone":"OC","racks":6000,"lat":7.4256,"lon":150.5508,"online":6000,"ok":6000,"status":"ok"},{"code":"MD","name":"Moldova","kind":"country","zone":"EU","racks":6000,"lat":47.4116,"lon":28.3699,"online":6000,"ok":6000,"status":"ok"},{"code":"MC","name":"Monaco","kind":"country","zone":"EU","racks":6000,"lat":43.7384,"lon":7.4246,"online":6000,"ok":6000,"status":"ok"},{"code":"MN","name":"Mongolia","kind":"country","zone":"AS","racks":6000,"lat":46.8625,"lon":103.8467,"online":6000,"ok":6000,"status":"ok"},{"code":"ME","name":"Montenegro","kind":"country","zone":"EU","racks":6000,"lat":42.7087,"lon":19.3744,"online":6000,"ok":6000,"status":"ok"},{"code":"MA","name":"Morocco","kind":"country","zone":"AF","racks":6000,"lat":31.7917,"lon":-7.0926,"online":6000,"ok":6000,"status":"ok"},{"code":"MZ","name":"Mozambique","kind":"country","zone":"AF","racks":6000,"lat":-18.6657,"lon":35.5296,"online":6000,"ok":6000,"status":"ok"},{"code":"MM","name":"Myanmar","kind":"country","zone":"AS","racks":6000,"lat":21.9162,"lon":95.956,"online":6000,"ok":6000,"status":"ok"},{"code":"NA","name":"Namibia","kind":"country","zone":"AF","racks":6000,"lat":-22.9576,"lon":18.4904,"online":6000,"ok":6000,"status":"ok"},{"code":"NR","name":"Nauru","kind":"country","zone":"OC","racks":6000,"lat":-0.5228,"lon":166.9315,"online":6000,"ok":6000,"status":"ok"},{"code":"NP","name":"Nepal","kind":"country","zone":"AS","racks":6000,"lat":28.3949,"lon":84.124,"online":6000,"ok":6000,"status":"ok"},{"code":"NL","name":"Netherlands","kind":"country","zone":"EU","racks":6000,"lat":52.1326,"lon":5.2913,"online":6000,"ok":6000,"status":"ok"},{"code":"NZ","name":"New Zealand","kind":"country","zone":"OC","racks":6000,"lat":-40.9006,"lon":174.886,"online":6000,"ok":6000,"status":"ok"},{"code":"NI","name":"Nicaragua","kind":"country","zone":"CA","racks":6000,"lat":12.8654,"lon":-85.2072,"online":6000,"ok":6000,"status":"ok"},{"code":"NE","name":"Niger","kind":"country","zone":"AF","racks":6000,"lat":17.6078,"lon":8.0817,"online":6000,"ok":6000,"status":"ok"},{"code":"NG","name":"Nigeria","kind":"country","zone":"AF","racks":6000,"lat":9.082,"lon":8.6753,"online":6000,"ok":6000,"status":"ok"},{"code":"MK","name":"North Macedonia","kind":"country","zone":"EU","racks":6000,"lat":41.6086,"lon":21.7453,"online":6000,"ok":6000,"status":"ok"},{"code":"NO","name":"Norway","kind":"country","zone":"EU","racks":6000,"lat":60.472,"lon":8.4689,"online":6000,"ok":6000,"status":"ok"},{"code":"OM","name":"Oman","kind":"country","zone":"AS","racks":6000,"lat":21.4735,"lon":55.9754,"online":6000,"ok":6000,"status":"ok"},{"code":"PK","name":"Pakistan","kind":"country","zone":"AS","racks":6000,"lat":30.3753,"lon":69.3451,"online":6000,"ok":6000,"status":"ok"},{"code":"PW","name":"Palau","kind":"country","zone":"OC","racks":6000,"lat":7.515,"lon":134.5825,"online":6000,"ok":6000,"status":"ok"},{"code":"PS","name":"Palestine","kind":"country","zone":"AS","racks":6000,"lat":31.9522,"lon":35.2332,"online":6000,"ok":6000,"status":"ok"},{"code":"PA","name":"Panama","kind":"country","zone":"CA","racks":6000,"lat":8.538,"lon":-80.7821,"online":6000,"ok":6000,"status":"ok"},{"code":"PG","name":"Papua New Guinea","kind":"country","zone":"OC","racks":6000,"lat":-6.315,"lon":143.9555,"online":6000,"ok":6000,"status":"ok"},{"code":"PY","name":"Paraguay","kind":"country","zone":"SA","racks":6000,"lat":-23.4425,"lon":-58.4438,"online":6000,"ok":6000,"status":"ok"},{"code":"PE","name":"Peru","kind":"country","zone":"SA","racks":6000,"lat":-9.19,"lon":-75.0152,"online":6000,"ok":6000,"status":"ok"},{"code":"PH","name":"Philippines","kind":"country","zone":"AS","racks":6000,"lat":12.8797,"lon":121.774,"online":6000,"ok":6000,"status":"ok"},{"code":"PL","name":"Poland","kind":"country","zone":"EU","racks":6000,"lat":51.9194,"lon":19.1451,"online":6000,"ok":6000,"status":"ok"},{"code":"PT","name":"Portugal","kind":"country","zone":"EU","racks":6000,"lat":39.3999,"lon":-8.2245,"online":6000,"ok":6000,"status":"ok"},{"code":"QA","name":"Qatar","kind":"country","zone":"AS","racks":6000,"lat":25.3548,"lon":51.1839,"online":6000,"ok":6000,"status":"ok"},{"code":"RO","name":"Romania","kind":"country","zone":"EU","racks":6000,"lat":45.9432,"lon":24.9668,"online":6000,"ok":6000,"status":"ok"},{"code":"RU","name":"Russia","kind":"country","zone":"AS","racks":6000,"lat":61.524,"lon":105.3188,"online":6000,"ok":6000,"status":"ok"},{"code":"RW","name":"Rwanda","kind":"country","zone":"AF","racks":6000,"lat":-1.9403,"lon":29.8739,"online":6000,"ok":6000,"status":"ok"},{"code":"KN","name":"Saint Kitts and Nevis","kind":"country","zone":"CARIB","racks":6000,"lat":17.3578,"lon":-62.783,"online":6000,"ok":6000,"status":"ok"},{"code":"LC","name":"Saint Lucia","kind":"country","zone":"CARIB","racks":6000,"lat":13.9094,"lon":-60.9789,"online":6000,"ok":6000,"status":"ok"},{"code":"VC","name":"Saint Vincent and the Grenadines","kind":"country","zone":"CARIB","racks":6000,"lat":12.9843,"lon":-61.2872,"online":6000,"ok":6000,"status":"ok"},{"code":"WS","name":"Samoa","kind":"country","zone":"OC","racks":6000,"lat":-13.759,"lon":-172.1046,"online":6000,"ok":6000,"status":"ok"},{"code":"SM","name":"San Marino","kind":"country","zone":"EU","racks":6000,"lat":43.9424,"lon":12.4578,"online":6000,"ok":6000,"status":"ok"},{"code":"ST","name":"Sao Tome and Principe","kind":"country","zone":"AF","racks":6000,"lat":0.1864,"lon":6.6131,"online":6000,"ok":6000,"status":"ok"},{"code":"SA","name":"Saudi Arabia","kind":"country","zone":"AS","racks":6000,"lat":23.8859,"lon":45.0792,"online":6000,"ok":6000,"status":"ok"},{"code":"SN","name":"Senegal","kind":"country","zone":"AF","racks":6000,"lat":14.4974,"lon":-14.4524,"online":6000,"ok":6000,"status":"ok"},{"code":"RS","name":"Serbia","kind":"country","zone":"EU","racks":6000,"lat":44.0165,"lon":21.0059,"online":6000,"ok":6000,"status":"ok"},{"code":"SC","name":"Seychelles","kind":"country","zone":"AF","racks":6000,"lat":-4.6796,"lon":55.492,"online":6000,"ok":6000,"status":"ok"},{"code":"SL","name":"Sierra Leone","kind":"country","zone":"AF","racks":6000,"lat":8.4606,"lon":-11.7799,"online":6000,"ok":6000,"status":"ok"},{"code":"SG","name":"Singapore","kind":"country","zone":"AS","racks":6000,"lat":1.3521,"lon":103.8198,"online":6000,"ok":6000,"status":"ok"},{"code":"SK","name":"Slovakia","kind":"country","zone":"EU","racks":6000,"lat":48.669,"lon":19.699,"online":6000,"ok":6000,"status":"ok"},{"code":"SI","name":"Slovenia","kind":"country","zone":"EU","racks":6000,"lat":46.1512,"lon":14.9955,"online":6000,"ok":6000,"status":"ok"},{"code":"SB","name":"Solomon Islands","kind":"country","zone":"OC","racks":6000,"lat":-9.6457,"lon":160.1562,"online":6000,"ok":6000,"status":"ok"},{"code":"SO","name":"Somalia","kind":"country","zone":"AF","racks":6000,"lat":5.1521,"lon":46.1996,"online":6000,"ok":6000,"status":"ok"},{"code":"ZA","name":"South Africa","kind":"country","zone":"AF","racks":6000,"lat":-30.5595,"lon":22.9375,"online":6000,"ok":6000,"status":"ok"},{"code":"SS","name":"South Sudan","kind":"country","zone":"AF","racks":6000,"lat":6.877,"lon":31.307,"online":6000,"ok":6000,"status":"ok"},{"code":"ES","name":"Spain","kind":"country","zone":"EU","racks":6000,"lat":40.4637,"lon":-3.7492,"online":6000,"ok":6000,"status":"ok"},{"code":"LK","name":"Sri Lanka","kind":"country","zone":"AS","racks":6000,"lat":7.8731,"lon":80.7718,"online":6000,"ok":6000,"status":"ok"},{"code":"SD","name":"Sudan","kind":"country","zone":"AF","racks":6000,"lat":12.8628,"lon":30.2176,"online":6000,"ok":6000,"status":"ok"},{"code":"SR","name":"Suriname","kind":"country","zone":"SA","racks":6000,"lat":3.9193,"lon":-56.0278,"online":6000,"ok":6000,"status":"ok"},{"code":"SE","name":"Sweden","kind":"country","zone":"EU","racks":6000,"lat":60.1282,"lon":18.6435,"online":6000,"ok":6000,"status":"ok"},{"code":"CH","name":"Switzerland","kind":"country","zone":"EU","racks":6000,"lat":46.8182,"lon":8.2275,"online":6000,"ok":6000,"status":"ok"},{"code":"SY","name":"Syria","kind":"country","zone":"AS","racks":6000,"lat":34.8021,"lon":38.9968,"online":6000,"ok":6000,"status":"ok"},{"code":"TW","name":"Taiwan","kind":"country","zone":"AS","racks":6000,"lat":23.6978,"lon":120.9605,"online":6000,"ok":6000,"status":"ok"},{"code":"TJ","name":"Tajikistan","kind":"country","zone":"AS","racks":6000,"lat":38.861,"lon":71.2761,"online":6000,"ok":6000,"status":"ok"},{"code":"TZ","name":"Tanzania","kind":"country","zone":"AF","racks":6000,"lat":-6.369,"lon":34.8888,"online":6000,"ok":6000,"status":"ok"},{"code":"TH","name":"Thailand","kind":"country","zone":"AS","racks":6000,"lat":15.87,"lon":100.9925,"online":6000,"ok":6000,"status":"ok"},{"code":"TL","name":"Timor-Leste","kind":"country","zone":"AS","racks":6000,"lat":-8.8742,"lon":125.7275,"online":6000,"ok":6000,"status":"ok"},{"code":"TG","name":"Togo","kind":"country","zone":"AF","racks":6000,"lat":8.6195,"lon":0.8248,"online":6000,"ok":6000,"status":"ok"},{"code":"TO","name":"Tonga","kind":"country","zone":"OC","racks":6000,"lat":-21.179,"lon":-175.1982,"online":6000,"ok":6000,"status":"ok"},{"code":"TT","name":"Trinidad and Tobago","kind":"country","zone":"CARIB","racks":6000,"lat":10.6918,"lon":-61.2225,"online":6000,"ok":6000,"status":"ok"},{"code":"TN","name":"Tunisia","kind":"country","zone":"AF","racks":6000,"lat":33.8869,"lon":9.5375,"online":6000,"ok":6000,"status":"ok"},{"code":"TR","name":"T\u00fcrkiye","kind":"country","zone":"AS","racks":6000,"lat":38.9637,"lon":35.2433,"online":6000,"ok":6000,"status":"ok"},{"code":"TM","name":"Turkmenistan","kind":"country","zone":"AS","racks":6000,"lat":38.9697,"lon":59.5563,"online":6000,"ok":6000,"status":"ok"},{"code":"TV","name":"Tuvalu","kind":"country","zone":"OC","racks":6000,"lat":-7.1095,"lon":177.6493,"online":6000,"ok":6000,"status":"ok"},{"code":"UG","name":"Uganda","kind":"country","zone":"AF","racks":6000,"lat":1.3733,"lon":32.2903,"online":6000,"ok":6000,"status":"ok"},{"code":"UA","name":"Ukraine","kind":"country","zone":"EU","racks":6000,"lat":48.3794,"lon":31.1656,"online":6000,"ok":6000,"status":"ok"},{"code":"AE","name":"United Arab Emirates","kind":"country","zone":"AS","racks":6000,"lat":23.4241,"lon":53.8478,"online":6000,"ok":6000,"status":"ok"},{"code":"GB","name":"United Kingdom","kind":"country","zone":"EU","racks":6000,"lat":55.3781,"lon":-3.436,"online":6000,"ok":6000,"status":"ok"},{"code":"US","name":"United States","kind":"country","zone":"NA","racks":6000,"lat":37.0902,"lon":-95.7129,"online":6000,"ok":6000,"status":"ok"},{"code":"UY","name":"Uruguay","kind":"country","zone":"SA","racks":6000,"lat":-32.5228,"lon":-55.7658,"online":6000,"ok":6000,"status":"ok"},{"code":"UZ","name":"Uzbekistan","kind":"country","zone":"AS","racks":6000,"lat":41.3775,"lon":64.5853,"online":6000,"ok":6000,"status":"ok"},{"code":"VU","name":"Vanuatu","kind":"country","zone":"OC","racks":6000,"lat":-15.3767,"lon":166.9592,"online":6000,"ok":6000,"status":"ok"},{"code":"VA","name":"Vatican City","kind":"country","zone":"EU","racks":6000,"lat":41.9029,"lon":12.4534,"online":6000,"ok":6000,"status":"ok"},{"code":"VE","name":"Venezuela","kind":"country","zone":"SA","racks":6000,"lat":6.4238,"lon":-66.5897,"online":6000,"ok":6000,"status":"ok"},{"code":"VN","name":"Vietnam","kind":"country","zone":"AS","racks":6000,"lat":14.0583,"lon":108.2772,"online":6000,"ok":6000,"status":"ok"},{"code":"YE","name":"Yemen","kind":"country","zone":"AS","racks":6000,"lat":15.5527,"lon":48.5164,"online":6000,"ok":6000,"status":"ok"},{"code":"ZM","name":"Zambia","kind":"country","zone":"AF","racks":6000,"lat":-13.1339,"lon":27.8493,"online":6000,"ok":6000,"status":"ok"},{"code":"ZW","name":"Zimbabwe","kind":"country","zone":"AF","racks":6000,"lat":-19.0154,"lon":29.1549,"online":6000,"ok":6000,"status":"ok"},{"code":"DC","name":"District of Columbia","kind":"district","zone":"NA","racks":6000,"lat":38.9072,"lon":-77.0369,"online":6000,"ok":6000,"status":"ok"},{"code":"PR","name":"Puerto Rico","kind":"territory","zone":"CARIB","racks":6000,"lat":18.2208,"lon":-66.5901,"online":6000,"ok":6000,"status":"ok"},{"code":"GU","name":"Guam","kind":"territory","zone":"OC","racks":6000,"lat":13.4443,"lon":144.7937,"online":6000,"ok":6000,"status":"ok"},{"code":"VI","name":"U.S. Virgin Islands","kind":"territory","zone":"CARIB","racks":6000,"lat":18.3358,"lon":-64.8963,"online":6000,"ok":6000,"status":"ok"},{"code":"AS","name":"American Samoa","kind":"territory","zone":"OC","racks":6000,"lat":-14.271,"lon":-170.1322,"online":6000,"ok":6000,"status":"ok"},{"code":"MP","name":"Northern Mariana Islands","kind":"territory","zone":"OC","racks":6000,"lat":15.0979,"lon":145.6739,"online":6000,"ok":6000,"status":"ok"},{"code":"UP","name":"Michigan Upper Peninsula","kind":"subregion","zone":"NA","racks":6000,"lat":46.25,"lon":-87.0,"online":6000,"ok":6000,"status":"ok"},{"code":"GL","name":"Greenland","kind":"territory","zone":"NA","racks":6000,"lat":71.7069,"lon":-42.6043,"online":6000,"ok":6000,"status":"ok"},{"code":"HK","name":"Hong Kong","kind":"territory","zone":"AS","racks":6000,"lat":22.3193,"lon":114.1694,"online":6000,"ok":6000,"status":"ok"},{"code":"MO","name":"Macao","kind":"territory","zone":"AS","racks":6000,"lat":22.1987,"lon":113.5439,"online":6000,"ok":6000,"status":"ok"},{"code":"XK","name":"Kosovo","kind":"country","zone":"EU","racks":6000,"lat":42.6026,"lon":20.903,"online":6000,"ok":6000,"status":"ok"},{"code":"MOW","name":"Moscow","kind":"city","zone":"AS","racks":6000,"lat":55.7558,"lon":37.6173,"online":6000,"ok":6000,"status":"ok"},{"code":"LED","name":"Saint Petersburg","kind":"city","zone":"AS","racks":6000,"lat":59.9311,"lon":30.3609,"online":6000,"ok":6000,"status":"ok"},{"code":"OVB","name":"Novosibirsk","kind":"city","zone":"AS","racks":6000,"lat":55.0084,"lon":82.9357,"online":6000,"ok":6000,"status":"ok"},{"code":"VVO","name":"Vladivostok","kind":"city","zone":"AS","racks":6000,"lat":43.1155,"lon":131.8855,"online":6000,"ok":6000,"status":"ok"},{"code":"IEV","name":"Kyiv","kind":"city","zone":"EU","racks":6000,"lat":50.4501,"lon":30.5234,"online":6000,"ok":6000,"status":"ok"},{"code":"LWO","name":"Lviv","kind":"city","zone":"EU","racks":6000,"lat":49.8397,"lon":24.0297,"online":6000,"ok":6000,"status":"ok"},{"code":"ODS","name":"Odesa","kind":"city","zone":"EU","racks":6000,"lat":46.4825,"lon":30.7233,"online":6000,"ok":6000,"status":"ok"},{"code":"HRK","name":"Kharkiv","kind":"city","zone":"EU","racks":6000,"lat":49.9935,"lon":36.2304,"online":6000,"ok":6000,"status":"ok"},{"code":"TLV","name":"Tel Aviv","kind":"city","zone":"AS","racks":6000,"lat":32.0853,"lon":34.7818,"online":6000,"ok":6000,"status":"ok"},{"code":"JRS","name":"Jerusalem","kind":"city","zone":"AS","racks":6000,"lat":31.7683,"lon":35.2137,"online":6000,"ok":6000,"status":"ok"},{"code":"HFA","name":"Haifa","kind":"city","zone":"AS","racks":6000,"lat":32.794,"lon":34.9896,"online":6000,"ok":6000,"status":"ok"},{"code":"THR","name":"Tehran","kind":"city","zone":"AS","racks":6000,"lat":35.6892,"lon":51.389,"online":6000,"ok":6000,"status":"ok"},{"code":"IFN","name":"Isfahan","kind":"city","zone":"AS","racks":6000,"lat":32.6539,"lon":51.666,"online":6000,"ok":6000,"status":"ok"},{"code":"MHD","name":"Mashhad","kind":"city","zone":"AS","racks":6000,"lat":36.2605,"lon":59.6168,"online":6000,"ok":6000,"status":"ok"},{"code":"WAW","name":"Warsaw","kind":"city","zone":"EU","racks":6000,"lat":52.2297,"lon":21.0122,"online":6000,"ok":6000,"status":"ok"},{"code":"KRK","name":"Krakow","kind":"city","zone":"EU","racks":6000,"lat":50.0647,"lon":19.945,"online":6000,"ok":6000,"status":"ok"},{"code":"GDN","name":"Gdansk","kind":"city","zone":"EU","racks":6000,"lat":54.352,"lon":18.6466,"online":6000,"ok":6000,"status":"ok"},{"code":"TPE","name":"Taipei","kind":"city","zone":"AS","racks":6000,"lat":25.033,"lon":121.5654,"online":6000,"ok":6000,"status":"ok"},{"code":"KHH","name":"Kaohsiung","kind":"city","zone":"AS","racks":6000,"lat":22.6273,"lon":120.3014,"online":6000,"ok":6000,"status":"ok"},{"code":"TXG","name":"Taichung","kind":"city","zone":"AS","racks":6000,"lat":24.1477,"lon":120.6736,"online":6000,"ok":6000,"status":"ok"},{"code":"HAN","name":"Hanoi","kind":"city","zone":"AS","racks":6000,"lat":21.0278,"lon":105.8342,"online":6000,"ok":6000,"status":"ok"},{"code":"SGN","name":"Ho Chi Minh City","kind":"city","zone":"AS","racks":6000,"lat":10.8231,"lon":106.6297,"online":6000,"ok":6000,"status":"ok"},{"code":"DAD","name":"Da Nang","kind":"city","zone":"AS","racks":6000,"lat":16.0544,"lon":108.2022,"online":6000,"ok":6000,"status":"ok"},{"code":"MNL","name":"Manila","kind":"city","zone":"AS","racks":6000,"lat":14.5995,"lon":120.9842,"online":6000,"ok":6000,"status":"ok"},{"code":"CEB","name":"Cebu","kind":"city","zone":"AS","racks":6000,"lat":10.3157,"lon":123.8854,"online":6000,"ok":6000,"status":"ok"},{"code":"DVO","name":"Davao","kind":"city","zone":"AS","racks":6000,"lat":7.1907,"lon":125.4553,"online":6000,"ok":6000,"status":"ok"},{"code":"NYC","name":"New York City","kind":"city","zone":"NA","racks":6000,"lat":40.7128,"lon":-74.006,"online":6000,"ok":6000,"status":"ok"},{"code":"LAX","name":"Los Angeles","kind":"city","zone":"NA","racks":6000,"lat":34.0522,"lon":-118.2437,"online":6000,"ok":6000,"status":"ok"},{"code":"CHI","name":"Chicago","kind":"city","zone":"NA","racks":6000,"lat":41.8781,"lon":-87.6298,"online":6000,"ok":6000,"status":"ok"},{"code":"LON","name":"London City","kind":"city","zone":"EU","racks":6000,"lat":51.5074,"lon":-0.1278,"online":6000,"ok":6000,"status":"ok"},{"code":"PAR","name":"Paris City","kind":"city","zone":"EU","racks":6000,"lat":48.8566,"lon":2.3522,"online":6000,"ok":6000,"status":"ok"},{"code":"BER","name":"Berlin City","kind":"city","zone":"EU","racks":6000,"lat":52.52,"lon":13.405,"online":6000,"ok":6000,"status":"ok"},{"code":"TYO","name":"Tokyo City","kind":"city","zone":"AS","racks":6000,"lat":35.6762,"lon":139.6503,"online":6000,"ok":6000,"status":"ok"},{"code":"SHA","name":"Shanghai","kind":"city","zone":"AS","racks":6000,"lat":31.2304,"lon":121.4737,"online":6000,"ok":6000,"status":"ok"},{"code":"PEK","name":"Beijing City","kind":"city","zone":"AS","racks":6000,"lat":39.9042,"lon":116.4074,"online":6000,"ok":6000,"status":"ok"},{"code":"DEL","name":"Delhi City","kind":"city","zone":"AS","racks":6000,"lat":28.7041,"lon":77.1025,"online":6000,"ok":6000,"status":"ok"},{"code":"BOM","name":"Mumbai","kind":"city","zone":"AS","racks":6000,"lat":19.076,"lon":72.8777,"online":6000,"ok":6000,"status":"ok"},{"code":"SYD","name":"Sydney","kind":"city","zone":"OC","racks":6000,"lat":-33.8688,"lon":151.2093,"online":6000,"ok":6000,"status":"ok"},{"code":"SAO","name":"Sao Paulo","kind":"city","zone":"SA","racks":6000,"lat":-23.5505,"lon":-46.6333,"online":6000,"ok":6000,"status":"ok"},{"code":"MEX","name":"Mexico City Metro","kind":"city","zone":"NA","racks":6000,"lat":19.4326,"lon":-99.1332,"online":6000,"ok":6000,"status":"ok"},{"code":"CAI","name":"Cairo City","kind":"city","zone":"AF","racks":6000,"lat":30.0444,"lon":31.2357,"online":6000,"ok":6000,"status":"ok"},{"code":"JNB","name":"Johannesburg","kind":"city","zone":"AF","racks":6000,"lat":-26.2041,"lon":28.0473,"online":6000,"ok":6000,"status":"ok"},{"code":"LAG","name":"Lagos","kind":"city","zone":"AF","racks":6000,"lat":6.5244,"lon":3.3792,"online":6000,"ok":6000,"status":"ok"},{"code":"IST","name":"Istanbul","kind":"city","zone":"AS","racks":6000,"lat":41.0082,"lon":28.9784,"online":6000,"ok":6000,"status":"ok"},{"code":"DXB","name":"Dubai","kind":"city","zone":"AS","racks":6000,"lat":25.2048,"lon":55.2708,"online":6000,"ok":6000,"status":"ok"},{"code":"SIN","name":"Singapore City","kind":"city","zone":"AS","racks":6000,"lat":1.3521,"lon":103.8198,"online":6000,"ok":6000,"status":"ok"},{"code":"SEL","name":"Seoul City","kind":"city","zone":"AS","racks":6000,"lat":37.5665,"lon":126.978,"online":6000,"ok":6000,"status":"ok"},{"code":"BKK","name":"Bangkok City","kind":"city","zone":"AS","racks":6000,"lat":13.7563,"lon":100.5018,"online":6000,"ok":6000,"status":"ok"},{"code":"HAV","name":"Havana City","kind":"city","zone":"CARIB","racks":6000,"lat":23.1136,"lon":-82.3666,"online":6000,"ok":6000,"status":"ok"},{"code":"KGD","name":"Kaliningrad","kind":"city","zone":"EU","racks":6000,"lat":54.7104,"lon":20.4522,"online":6000,"ok":6000,"status":"ok"},{"code":"SVX","name":"Yekaterinburg","kind":"city","zone":"AS","racks":6000,"lat":56.8389,"lon":60.6057,"online":6000,"ok":6000,"status":"ok"},{"code":"KJA","name":"Krasnoyarsk","kind":"city","zone":"AS","racks":6000,"lat":56.0153,"lon":92.8932,"online":6000,"ok":6000,"status":"ok"},{"code":"ROV","name":"Rostov-on-Don","kind":"city","zone":"AS","racks":6000,"lat":47.2357,"lon":39.7015,"online":6000,"ok":6000,"status":"ok"},{"code":"DNK","name":"Dnipro","kind":"city","zone":"EU","racks":6000,"lat":48.4647,"lon":35.0462,"online":6000,"ok":6000,"status":"ok"},{"code":"VIN","name":"Vinnytsia","kind":"city","zone":"EU","racks":6000,"lat":49.2331,"lon":28.4682,"online":6000,"ok":6000,"status":"ok"},{"code":"ZPR","name":"Zaporizhzhia","kind":"city","zone":"EU","racks":6000,"lat":47.8388,"lon":35.1396,"online":6000,"ok":6000,"status":"ok"},{"code":"BEY","name":"Beirut","kind":"city","zone":"AS","racks":6000,"lat":33.8938,"lon":35.5018,"online":6000,"ok":6000,"status":"ok"},{"code":"AMM","name":"Amman","kind":"city","zone":"AS","racks":6000,"lat":31.9454,"lon":35.9284,"online":6000,"ok":6000,"status":"ok"},{"code":"DAM","name":"Damascus","kind":"city","zone":"AS","racks":6000,"lat":33.5138,"lon":36.2765,"online":6000,"ok":6000,"status":"ok"},{"code":"BGW","name":"Baghdad City","kind":"city","zone":"AS","racks":6000,"lat":33.3152,"lon":44.3661,"online":6000,"ok":6000,"status":"ok"},{"code":"DOH","name":"Doha","kind":"city","zone":"AS","racks":6000,"lat":25.2854,"lon":51.531,"online":6000,"ok":6000,"status":"ok"},{"code":"RUH","name":"Riyadh City","kind":"city","zone":"AS","racks":6000,"lat":24.7136,"lon":46.6753,"online":6000,"ok":6000,"status":"ok"},{"code":"JED","name":"Jeddah","kind":"city","zone":"AS","racks":6000,"lat":21.4858,"lon":39.1925,"online":6000,"ok":6000,"status":"ok"},{"code":"KHI","name":"Karachi","kind":"city","zone":"AS","racks":6000,"lat":24.8607,"lon":67.0011,"online":6000,"ok":6000,"status":"ok"},{"code":"LHE","name":"Lahore","kind":"city","zone":"AS","racks":6000,"lat":31.5204,"lon":74.3587,"online":6000,"ok":6000,"status":"ok"},{"code":"DAC","name":"Dhaka City","kind":"city","zone":"AS","racks":6000,"lat":23.8103,"lon":90.4125,"online":6000,"ok":6000,"status":"ok"},{"code":"CCU","name":"Kolkata","kind":"city","zone":"AS","racks":6000,"lat":22.5726,"lon":88.3639,"online":6000,"ok":6000,"status":"ok"},{"code":"BLR","name":"Bengaluru","kind":"city","zone":"AS","racks":6000,"lat":12.9716,"lon":77.5946,"online":6000,"ok":6000,"status":"ok"},{"code":"MAA","name":"Chennai","kind":"city","zone":"AS","racks":6000,"lat":13.0827,"lon":80.2707,"online":6000,"ok":6000,"status":"ok"},{"code":"CGK","name":"Jakarta City","kind":"city","zone":"AS","racks":6000,"lat":-6.2088,"lon":106.8456,"online":6000,"ok":6000,"status":"ok"},{"code":"SUB","name":"Surabaya","kind":"city","zone":"AS","racks":6000,"lat":-7.2575,"lon":112.7521,"online":6000,"ok":6000,"status":"ok"},{"code":"QZN","name":"Quezon City","kind":"city","zone":"AS","racks":6000,"lat":14.676,"lon":121.0437,"online":6000,"ok":6000,"status":"ok"},{"code":"MCT","name":"Mactan Cebu","kind":"city","zone":"AS","racks":6000,"lat":10.307,"lon":123.979,"online":6000,"ok":6000,"status":"ok"},{"code":"PQC","name":"Phu Quoc","kind":"city","zone":"AS","racks":6000,"lat":10.227,"lon":103.967,"online":6000,"ok":6000,"status":"ok"},{"code":"HUI","name":"Hue","kind":"city","zone":"AS","racks":6000,"lat":16.4637,"lon":107.5909,"online":6000,"ok":6000,"status":"ok"},{"code":"NRT","name":"Narita Corridor","kind":"city","zone":"AS","racks":6000,"lat":35.7647,"lon":140.3864,"online":6000,"ok":6000,"status":"ok"},{"code":"OSA","name":"Osaka","kind":"city","zone":"AS","racks":6000,"lat":34.6937,"lon":135.5023,"online":6000,"ok":6000,"status":"ok"},{"code":"FUK","name":"Fukuoka","kind":"city","zone":"AS","racks":6000,"lat":33.5904,"lon":130.4017,"online":6000,"ok":6000,"status":"ok"},{"code":"ICN","name":"Incheon","kind":"city","zone":"AS","racks":6000,"lat":37.4563,"lon":126.7052,"online":6000,"ok":6000,"status":"ok"},{"code":"PUS","name":"Busan","kind":"city","zone":"AS","racks":6000,"lat":35.1796,"lon":129.0756,"online":6000,"ok":6000,"status":"ok"},{"code":"TNN","name":"Tainan","kind":"city","zone":"AS","racks":6000,"lat":22.9997,"lon":120.227,"online":6000,"ok":6000,"status":"ok"},{"code":"HNL","name":"Honolulu","kind":"city","zone":"OC","racks":6000,"lat":21.3069,"lon":-157.8583,"online":6000,"ok":6000,"status":"ok"},{"code":"ANC","name":"Anchorage","kind":"city","zone":"NA","racks":6000,"lat":61.2181,"lon":-149.9003,"online":6000,"ok":6000,"status":"ok"},{"code":"YVR","name":"Vancouver","kind":"city","zone":"NA","racks":6000,"lat":49.2827,"lon":-123.1207,"online":6000,"ok":6000,"status":"ok"},{"code":"YYZ","name":"Toronto","kind":"city","zone":"NA","racks":6000,"lat":43.6532,"lon":-79.3832,"online":6000,"ok":6000,"status":"ok"},{"code":"YUL","name":"Montreal","kind":"city","zone":"NA","racks":6000,"lat":45.5017,"lon":-73.5673,"online":6000,"ok":6000,"status":"ok"},{"code":"MIA","name":"Miami","kind":"city","zone":"NA","racks":6000,"lat":25.7617,"lon":-80.1918,"online":6000,"ok":6000,"status":"ok"},{"code":"SEA","name":"Seattle","kind":"city","zone":"NA","racks":6000,"lat":47.6062,"lon":-122.3321,"online":6000,"ok":6000,"status":"ok"},{"code":"DEN","name":"Denver","kind":"city","zone":"NA","racks":6000,"lat":39.7392,"lon":-104.9903,"online":6000,"ok":6000,"status":"ok"},{"code":"ATL","name":"Atlanta","kind":"city","zone":"NA","racks":6000,"lat":33.749,"lon":-84.388,"online":6000,"ok":6000,"status":"ok"},{"code":"DFW","name":"Dallas","kind":"city","zone":"NA","racks":6000,"lat":32.7767,"lon":-96.797,"online":6000,"ok":6000,"status":"ok"},{"code":"BOG","name":"Bogota City","kind":"city","zone":"SA","racks":6000,"lat":4.711,"lon":-74.0721,"online":6000,"ok":6000,"status":"ok"},{"code":"LIM","name":"Lima City","kind":"city","zone":"SA","racks":6000,"lat":-12.0464,"lon":-77.0428,"online":6000,"ok":6000,"status":"ok"},{"code":"SCL","name":"Santiago City","kind":"city","zone":"SA","racks":6000,"lat":-33.4489,"lon":-70.6693,"online":6000,"ok":6000,"status":"ok"},{"code":"EZE","name":"Buenos Aires City","kind":"city","zone":"SA","racks":6000,"lat":-34.6037,"lon":-58.3816,"online":6000,"ok":6000,"status":"ok"},{"code":"GIG","name":"Rio de Janeiro","kind":"city","zone":"SA","racks":6000,"lat":-22.9068,"lon":-43.1729,"online":6000,"ok":6000,"status":"ok"},{"code":"CPT","name":"Cape Town","kind":"city","zone":"AF","racks":6000,"lat":-33.9249,"lon":18.4241,"online":6000,"ok":6000,"status":"ok"},{"code":"NBO","name":"Nairobi City","kind":"city","zone":"AF","racks":6000,"lat":-1.2921,"lon":36.8219,"online":6000,"ok":6000,"status":"ok"},{"code":"ACC","name":"Accra","kind":"city","zone":"AF","racks":6000,"lat":5.6037,"lon":-0.187,"online":6000,"ok":6000,"status":"ok"},{"code":"ADD","name":"Addis Ababa City","kind":"city","zone":"AF","racks":6000,"lat":9.032,"lon":38.7469,"online":6000,"ok":6000,"status":"ok"},{"code":"CAS","name":"Casablanca","kind":"city","zone":"AF","racks":6000,"lat":33.5731,"lon":-7.5898,"online":6000,"ok":6000,"status":"ok"},{"code":"ALG","name":"Algiers","kind":"city","zone":"AF","racks":6000,"lat":36.7538,"lon":3.0588,"online":6000,"ok":6000,"status":"ok"},{"code":"TUN","name":"Tunis","kind":"city","zone":"AF","racks":6000,"lat":36.8065,"lon":10.1815,"online":6000,"ok":6000,"status":"ok"},{"code":"ATH","name":"Athens City","kind":"city","zone":"EU","racks":6000,"lat":37.9838,"lon":23.7275,"online":6000,"ok":6000,"status":"ok"},{"code":"MAD","name":"Madrid City","kind":"city","zone":"EU","racks":6000,"lat":40.4168,"lon":-3.7038,"online":6000,"ok":6000,"status":"ok"},{"code":"BCN","name":"Barcelona","kind":"city","zone":"EU","racks":6000,"lat":41.3874,"lon":2.1686,"online":6000,"ok":6000,"status":"ok"},{"code":"ROM","name":"Rome City","kind":"city","zone":"EU","racks":6000,"lat":41.9028,"lon":12.4964,"online":6000,"ok":6000,"status":"ok"},{"code":"MIL","name":"Milan","kind":"city","zone":"EU","racks":6000,"lat":45.4642,"lon":9.19,"online":6000,"ok":6000,"status":"ok"},{"code":"VIE","name":"Vienna City","kind":"city","zone":"EU","racks":6000,"lat":48.2082,"lon":16.3738,"online":6000,"ok":6000,"status":"ok"},{"code":"PRG","name":"Prague City","kind":"city","zone":"EU","racks":6000,"lat":50.0755,"lon":14.4378,"online":6000,"ok":6000,"status":"ok"},{"code":"LOD","name":"Lodz","kind":"city","zone":"EU","racks":6000,"lat":51.7592,"lon":19.456,"online":6000,"ok":6000,"status":"ok"},{"code":"WRO","name":"Wroclaw","kind":"city","zone":"EU","racks":6000,"lat":51.1079,"lon":17.0385,"online":6000,"ok":6000,"status":"ok"},{"code":"HEL","name":"Helsinki City","kind":"city","zone":"EU","racks":6000,"lat":60.1699,"lon":24.9384,"online":6000,"ok":6000,"status":"ok"},{"code":"STO","name":"Stockholm City","kind":"city","zone":"EU","racks":6000,"lat":59.3293,"lon":18.0686,"online":6000,"ok":6000,"status":"ok"},{"code":"OSL","name":"Oslo City","kind":"city","zone":"EU","racks":6000,"lat":59.9139,"lon":10.7522,"online":6000,"ok":6000,"status":"ok"},{"code":"REK","name":"Reykjavik","kind":"city","zone":"EU","racks":6000,"lat":64.1466,"lon":-21.9426,"online":6000,"ok":6000,"status":"ok"},{"code":"TLL","name":"Tallinn","kind":"city","zone":"EU","racks":6000,"lat":59.437,"lon":24.7536,"online":6000,"ok":6000,"status":"ok"},{"code":"RIX","name":"Riga","kind":"city","zone":"EU","racks":6000,"lat":56.9496,"lon":24.1052,"online":6000,"ok":6000,"status":"ok"},{"code":"VNO","name":"Vilnius","kind":"city","zone":"EU","racks":6000,"lat":54.6872,"lon":25.2797,"online":6000,"ok":6000,"status":"ok"},{"code":"KIV","name":"Chisinau","kind":"city","zone":"EU","racks":6000,"lat":47.0105,"lon":28.8638,"online":6000,"ok":6000,"status":"ok"},{"code":"TBS","name":"Tbilisi","kind":"city","zone":"AS","racks":6000,"lat":41.7151,"lon":44.8271,"online":6000,"ok":6000,"status":"ok"},{"code":"EVN","name":"Yerevan","kind":"city","zone":"AS","racks":6000,"lat":40.1792,"lon":44.4991,"online":6000,"ok":6000,"status":"ok"},{"code":"BAK","name":"Baku","kind":"city","zone":"AS","racks":6000,"lat":40.4093,"lon":49.8671,"online":6000,"ok":6000,"status":"ok"},{"code":"ALA","name":"Almaty","kind":"city","zone":"AS","racks":6000,"lat":43.222,"lon":76.8512,"online":6000,"ok":6000,"status":"ok"},{"code":"TAS","name":"Tashkent","kind":"city","zone":"AS","racks":6000,"lat":41.2995,"lon":69.2401,"online":6000,"ok":6000,"status":"ok"},{"code":"ULN","name":"Ulaanbaatar","kind":"city","zone":"AS","racks":6000,"lat":47.8864,"lon":106.9057,"online":6000,"ok":6000,"status":"ok"},{"code":"PNH","name":"Phnom Penh","kind":"city","zone":"AS","racks":6000,"lat":11.5564,"lon":104.9282,"online":6000,"ok":6000,"status":"ok"},{"code":"RGN","name":"Yangon","kind":"city","zone":"AS","racks":6000,"lat":16.8661,"lon":96.1951,"online":6000,"ok":6000,"status":"ok"},{"code":"VTE","name":"Vientiane","kind":"city","zone":"AS","racks":6000,"lat":17.9757,"lon":102.6331,"online":6000,"ok":6000,"status":"ok"},{"code":"CMB","name":"Colombo","kind":"city","zone":"AS","racks":6000,"lat":6.9271,"lon":79.8612,"online":6000,"ok":6000,"status":"ok"},{"code":"KTM","name":"Kathmandu","kind":"city","zone":"AS","racks":6000,"lat":27.7172,"lon":85.324,"online":6000,"ok":6000,"status":"ok"},{"code":"MEL","name":"Melbourne","kind":"city","zone":"OC","racks":6000,"lat":-37.8136,"lon":144.9631,"online":6000,"ok":6000,"status":"ok"},{"code":"AKL","name":"Auckland","kind":"city","zone":"OC","racks":6000,"lat":-36.8485,"lon":174.7633,"online":6000,"ok":6000,"status":"ok"},{"code":"PPT","name":"Papeete","kind":"city","zone":"OC","racks":6000,"lat":-17.5516,"lon":-149.5585,"online":6000,"ok":6000,"status":"ok"},{"code":"GUM","name":"Hagatna Guam","kind":"city","zone":"OC","racks":6000,"lat":13.4757,"lon":144.7489,"online":6000,"ok":6000,"status":"ok"},{"code":"SPN","name":"Saipan City","kind":"city","zone":"OC","racks":6000,"lat":15.1778,"lon":145.7509,"online":6000,"ok":6000,"status":"ok"},{"code":"SJU","name":"San Juan PR","kind":"city","zone":"CARIB","racks":6000,"lat":18.4655,"lon":-66.1057,"online":6000,"ok":6000,"status":"ok"},{"code":"POS","name":"Port of Spain","kind":"city","zone":"CARIB","racks":6000,"lat":10.6918,"lon":-61.2225,"online":6000,"ok":6000,"status":"ok"},{"code":"KIN","name":"Kingston JM","kind":"city","zone":"CARIB","racks":6000,"lat":18.0179,"lon":-76.8099,"online":6000,"ok":6000,"status":"ok"},{"code":"PAP","name":"Port-au-Prince","kind":"city","zone":"CARIB","racks":6000,"lat":18.5944,"lon":-72.3074,"online":6000,"ok":6000,"status":"ok"},{"code":"SCU","name":"Santiago de Cuba","kind":"city","zone":"CARIB","racks":6000,"lat":20.0169,"lon":-75.83,"online":6000,"ok":6000,"status":"ok"},{"code":"NUK","name":"Nuuk","kind":"city","zone":"NA","racks":6000,"lat":64.1814,"lon":-51.6941,"online":6000,"ok":6000,"status":"ok"},{"code":"FAI","name":"Fairbanks","kind":"city","zone":"NA","racks":6000,"lat":64.8378,"lon":-147.7164,"online":6000,"ok":6000,"status":"ok"},{"code":"YFB","name":"Iqaluit","kind":"city","zone":"NA","racks":6000,"lat":63.7467,"lon":-68.517,"online":6000,"ok":6000,"status":"ok"},{"code":"TRD","name":"Tromso","kind":"city","zone":"EU","racks":6000,"lat":69.6492,"lon":18.9553,"online":6000,"ok":6000,"status":"ok"},{"code":"LYR","name":"Longyearbyen","kind":"city","zone":"EU","racks":6000,"lat":78.2232,"lon":15.6267,"online":6000,"ok":6000,"status":"ok"},{"code":"USH","name":"Ushuaia","kind":"city","zone":"SA","racks":6000,"lat":-54.8019,"lon":-68.303,"online":6000,"ok":6000,"status":"ok"},{"code":"PMC","name":"Puerto Montt","kind":"city","zone":"SA","racks":6000,"lat":-41.4693,"lon":-72.9424,"online":6000,"ok":6000,"status":"ok"},{"code":"MQT","name":"Marquette UP","kind":"city","zone":"NA","racks":6000,"lat":46.5436,"lon":-87.3954,"online":6000,"ok":6000,"status":"ok"},{"code":"ESC","name":"Escanaba","kind":"city","zone":"NA","racks":6000,"lat":45.7453,"lon":-87.0646,"online":6000,"ok":6000,"status":"ok"},{"code":"GRB","name":"Green Bay","kind":"city","zone":"NA","racks":6000,"lat":44.5133,"lon":-88.0133,"online":6000,"ok":6000,"status":"ok"},{"code":"MSN","name":"Madison WI","kind":"city","zone":"NA","racks":6000,"lat":43.0731,"lon":-89.4012,"online":6000,"ok":6000,"status":"ok"}],"zones":{"AS":{"regions":["AF","AM","AZ","BH","BD","BT","BN","KH","CN","GE","IN","ID","IR","IQ","IL","JP","JO","KZ","KP","KR","KW","KG","LA","LB","MY","MV","MN","MM","NP","OM","PK","PS","PH","QA","RU","SA","SG","LK","SY","TW","TJ","TH","TL","TR","TM","AE","UZ","VN","YE","HK","MO","MOW","LED","OVB","VVO","TLV","JRS","HFA","THR","IFN","MHD","TPE","KHH","TXG","HAN","SGN","DAD","MNL","CEB","DVO","TYO","SHA","PEK","DEL","BOM","IST","DXB","SIN","SEL","BKK","SVX","KJA","ROV","BEY","AMM","DAM","BGW","DOH","RUH","JED","KHI","LHE","DAC","CCU","BLR","MAA","CGK","SUB","QZN","MCT","PQC","HUI","NRT","OSA","FUK","ICN","PUS","TNN","TBS","EVN","BAK","ALA","TAS","ULN","PNH","RGN","VTE","CMB","KTM"],"racks":714000},"EU":{"regions":["AL","AD","AT","BY","BE","BA","BG","HR","CY","CZ","DK","EE","FI","FR","DE","GR","HU","IS","IE","IT","LV","LI","LT","LU","MT","MD","MC","ME","NL","MK","NO","PL","PT","RO","SM","RS","SK","SI","ES","SE","CH","UA","GB","VA","XK","IEV","LWO","ODS","HRK","WAW","KRK","GDN","LON","PAR","BER","KGD","DNK","VIN","ZPR","ATH","MAD","BCN","ROM","MIL","VIE","PRG","LOD","WRO","HEL","STO","OSL","REK","TLL","RIX","VNO","KIV","TRD","LYR"],"racks":468000},"AF":{"regions":["DZ","AO","BJ","BW","BF","BI","CV","CM","CF","TD","KM","CG","CD","CI","DJ","EG","GQ","ER","SZ","ET","GA","GM","GH","GN","GW","KE","LS","LR","LY","MG","MW","ML","MR","MU","MA","MZ","NA","NE","NG","RW","ST","SN","SC","SL","SO","ZA","SS","SD","TZ","TG","TN","UG","ZM","ZW","CAI","JNB","LAG","CPT","NBO","ACC","ADD","CAS","ALG","TUN"],"racks":384000},"CARIB":{"regions":["AG","BS","BB","CU","DM","DO","GD","HT","JM","KN","LC","VC","TT","PR","VI","HAV","SJU","POS","KIN","PAP","SCU"],"racks":126000},"SA":{"regions":["AR","BO","BR","CL","CO","EC","GY","PY","PE","SR","UY","VE","SAO","BOG","LIM","SCL","EZE","GIG","USH","PMC"],"racks":120000},"OC":{"regions":["AU","FJ","KI","MH","FM","NR","NZ","PW","PG","WS","SB","TO","TV","VU","GU","AS","MP","SYD","HNL","MEL","AKL","PPT","GUM","SPN"],"racks":144000},"CA":{"regions":["BZ","CR","SV","GT","HN","NI","PA"],"racks":42000},"NA":{"regions":["CA","MX","US","DC","UP","GL","NYC","LAX","CHI","MEX","ANC","YVR","YYZ","YUL","MIA","SEA","DEN","ATL","DFW","NUK","FAI","YFB","MQT","ESC","GRB","MSN"],"racks":156000}},"api":{"regions":"/api/regions","systems":"/api/systems?region=CODE&limit=50&offset=0","dossier":"/api/dossier?id=","export_csv":"/api/dossiers/export.csv","export_json":"/api/dossiers/export.json"},"note":"6000 racks per country \u00b7 map pins sync to centroids \u00b7 never fetch all racks"}
